City_ID,City,Lat,Lng,Max Temp,Humidity,Cloudiness,Wind Speed,Country,Date
0,east london,-33.0153,27.9116,58.14,88,20,0.0,ZA,1627449534
1,severobaykalsk,55.65,109.3167,67.87,54,74,0.98,RU,1627449534
2,ushuaia,-54.8,-68.3,38.86,93,75,11.5,AR,1627449534
3,umm kaddadah,13.6017,26.6876,77.36,72,100,5.73,SD,1627449535
4,puerto narino,-3.7703,-70.3831,73.35,94,34,2.33,CO,1627449535
5,albany,42.6001,-73.9662,66.15,93,80,3.09,US,1627449315
6,mahebourg,-20.4081,57.7,70.09,78,75,18.41,MU,1627449536
7,punta arenas,-53.15,-70.9167,44.71,93,75,20.71,CL,1627449536
8,zyryanka,65.75,150.85,43.9,84,100,12.39,RU,1627449536
9,chancay,-11.5714,-77.2672,60.67,89,65,7.78,PE,1627449537
10,rikitea,-23.1203,-134.9692,74.55,80,100,14.2,PF,1627449537
11,ushtobe,45.2514,77.9838,82.02,24,0,20.85,KZ,1627449538
12,cockburn town,21.4612,-71.1419,81.54,76,30,16.67,TC,1627449538
13,hobart,-42.8794,147.3294,57.25,54,20,8.01,AU,1627449538
14,taoudenni,22.6783,-3.9836,94.96,16,74,17.02,ML,1627449539
15,vaini,-21.2,-175.2,69.96,78,75,6.91,TO,1627449539
16,butaritari,3.0707,172.7902,81.84,72,100,5.35,KI,1627449540
17,nanortalik,60.1432,-45.2371,43.75,84,100,3.04,GL,1627449540
18,lagunillas,10.1301,-71.2595,77.56,88,100,4.34,VE,1627449540
19,hermanus,-34.4187,19.2345,50.9,64,99,10.58,ZA,1627449541
20,cuajinicuilapa,16.4667,-98.4167,76.71,87,93,2.01,MX,1627449541
21,port alfred,-33.5906,26.891,59.0,83,7,12.1,ZA,1627449542
22,half moon bay,37.4636,-122.4286,75.02,84,1,0.0,US,1627449306
23,kapaa,22.0752,-159.319,82.38,75,40,3.0,US,1627449542
24,hobyo,5.3505,48.5268,77.58,74,99,21.0,SO,1627449542
25,gat,31.61,34.7642,82.4,69,0,3.74,IL,1627449543
26,grand gaube,-20.0064,57.6608,70.2,84,89,13.0,MU,1627449543
27,chokurdakh,70.6333,147.9167,50.7,45,38,15.61,RU,1627449544
28,busselton,-33.65,115.3333,62.04,66,54,21.32,AU,1627449545
29,mar del plata,-38.0023,-57.5575,44.13,64,90,8.99,AR,1627449487
30,plouzane,48.3833,-4.6167,59.32,94,90,11.5,FR,1627449545
31,kieta,-6.2167,155.6333,82.83,74,90,4.23,PG,1627449546
32,buraydah,26.326,43.975,95.45,14,36,14.05,SA,1627449546
33,buala,-8.145,159.5921,83.05,74,94,8.72,SB,1627449547
34,lompoc,34.6391,-120.4579,63.01,82,90,6.91,US,1627449547
35,fairbanks,64.8378,-147.7164,59.09,93,90,1.01,US,1627449301
36,bluff,-46.6,168.3333,51.8,74,44,1.19,NZ,1627449548
37,cururupu,-1.8283,-44.8683,74.17,93,62,3.0,BR,1627449548
38,xinzhi,36.4989,111.7047,84.81,54,100,1.48,CN,1627449548
39,barrow,71.2906,-156.7887,41.02,92,90,14.97,US,1627449549
40,avarua,-21.2078,-159.775,69.85,83,13,1.14,CK,1627449549
41,arraial do cabo,-22.9661,-42.0278,70.34,76,0,20.29,BR,1627449550
42,itoman,26.1247,127.6694,93.58,74,75,11.5,JP,1627449550
43,eyl,7.9803,49.8164,80.73,51,92,26.64,SO,1627449551
44,kenai,60.5544,-151.2583,66.02,73,1,19.57,US,1627449417
45,northam,51.0333,-4.2167,60.03,95,23,8.25,GB,1627449551
46,lufilufi,-13.8745,-171.5986,82.18,74,29,12.88,WS,1627449552
47,samarai,-10.6167,150.6667,79.05,85,91,11.48,PG,1627449552
48,kropotkin,45.4375,40.5756,72.93,48,9,8.16,RU,1627449552
49,la ronge,55.1001,-105.2842,55.62,94,20,1.14,CA,1627449553
50,kodiak,57.79,-152.4072,60.31,63,90,12.66,US,1627449553
51,tezu,27.9167,96.1667,95.61,49,62,3.71,IN,1627449554
52,cherskiy,68.75,161.3,38.46,74,100,16.78,RU,1627449554
53,husavik,66.0449,-17.3389,49.91,99,100,9.82,IS,1627449554
54,zaraysk,54.7653,38.8836,72.09,62,36,4.7,RU,1627449555
55,hithadhoo,-0.6,73.0833,81.18,77,75,9.55,MV,1627449555
56,ust-omchug,61.15,149.6333,51.8,56,98,7.92,RU,1627449555
57,naze,28.3667,129.4833,83.32,84,61,11.95,JP,1627449556
58,hof,50.3167,11.9167,64.8,88,75,6.91,DE,1627449556
59,duvan,55.695,57.9024,57.18,54,69,8.99,RU,1627449557
60,deputatskiy,69.3,139.9,44.6,65,97,6.11,RU,1627449557
61,kalmunai,7.4167,81.8167,89.51,53,100,4.65,LK,1627449557
62,qaanaaq,77.484,-69.3632,42.46,90,98,5.06,GL,1627449558
63,port lincoln,-34.7333,135.8667,56.86,54,14,23.47,AU,1627449558
64,weligama,5.9667,80.4167,82.29,81,97,12.66,LK,1627449356
65,hasaki,35.7333,140.8333,88.29,79,100,22.46,JP,1627449559
66,newport,51.5877,-2.9984,60.91,90,80,7.36,GB,1627449270
67,atambua,-9.1061,124.8925,85.26,46,65,1.88,ID,1627449559
68,tasiilaq,65.6145,-37.6368,33.96,78,21,7.09,GL,1627449560
69,faanui,-16.4833,-151.75,77.23,76,71,7.16,PF,1627449560
70,kruisfontein,-34.0033,24.7314,50.88,85,24,9.06,ZA,1627449561
71,mataura,-46.1927,168.8643,51.48,89,87,2.39,NZ,1627449561
72,patiya,22.2931,91.9762,77.61,96,100,9.71,BD,1627449561
73,kodinsk,58.6881,99.1844,76.87,60,100,6.69,RU,1627449562
74,georgetown,5.4112,100.3354,89.53,66,20,9.22,MY,1627449311
75,petrozavodsk,61.7849,34.3469,67.46,73,0,4.47,RU,1627449562
76,chuy,-33.6971,-53.4616,44.26,81,68,14.14,UY,1627449563
77,kencong,-8.2833,113.3667,84.11,56,18,10.42,ID,1627449563
78,kavaratti,10.5669,72.642,81.79,78,100,19.98,IN,1627449564
79,bandarbeyla,9.4942,50.8122,82.36,54,64,32.7,SO,1627449564
80,bethel,41.3712,-73.414,71.96,89,90,3.44,US,1627449564
81,huilong,31.8111,121.655,86.04,91,100,21.94,CN,1627449565
82,dryden,49.7833,-92.7503,62.37,57,2,4.47,CA,1627449306
83,clyde river,70.4692,-68.5914,44.83,87,90,4.61,CA,1627449565
84,guerrero negro,27.9769,-114.0611,70.0,83,22,14.27,MX,1627449566
85,tuktoyaktuk,69.4541,-133.0374,50.0,87,90,10.36,CA,1627449566
86,penha,-26.7694,-48.6458,48.16,69,19,14.54,BR,1627449566
87,cayenne,4.9333,-52.3333,81.09,82,0,1.99,GF,1627449567
88,jamestown,42.097,-79.2353,67.64,88,20,1.63,US,1627449409
89,beringovskiy,63.05,179.3167,47.66,87,100,23.58,RU,1627449567
90,grindavik,63.8424,-22.4338,51.57,100,0,10.36,IS,1627449568
91,cape town,-33.9258,18.4232,49.26,88,20,2.3,ZA,1627449439
92,norman wells,65.282,-126.8329,60.84,77,75,3.44,CA,1627449569
93,namatanai,-3.6667,152.4333,83.98,68,50,5.53,PG,1627449569
94,sabang,5.8933,95.3214,83.25,75,90,21.81,ID,1627449569
95,souillac,-20.5167,57.5167,70.18,78,75,18.41,MU,1627449570
96,carutapera,-1.195,-46.02,77.23,86,90,4.85,BR,1627449570
97,aldama,22.9167,-98.0667,81.63,87,47,2.04,MX,1627449571
98,banmankhi,25.8833,87.1833,84.45,80,100,8.97,IN,1627449571
99,cidreira,-30.1811,-50.2056,45.07,63,4,17.94,BR,1627449571
100,nikolskoye,59.7035,30.7861,71.8,68,100,5.35,RU,1627449572
101,svetlogorsk,52.6333,29.7333,67.53,90,74,5.08,BY,1627449572
102,grand junction,39.0639,-108.5507,83.28,44,1,1.01,US,1627449573
103,paragominas,-2.9667,-47.4833,71.15,95,72,2.24,BR,1627449573
104,shirokiy,49.758,129.523,79.11,77,99,6.35,RU,1627449574
105,tura,25.5198,90.2201,85.08,70,97,9.08,IN,1627449574
106,upata,8.0086,-62.3989,74.19,98,100,1.95,VE,1627449574
107,halifax,44.6453,-63.5724,63.68,93,91,1.14,CA,1627449351
108,kahului,20.8947,-156.47,78.84,78,40,14.97,US,1627449575
109,sorong,-0.8833,131.25,85.73,68,100,4.54,ID,1627449575
110,new norfolk,-42.7826,147.0587,56.91,57,47,5.99,AU,1627449576
111,ribeira grande,38.5167,-28.7,71.73,86,60,8.88,PT,1627449576
112,orange cove,36.6244,-119.3137,91.06,35,1,4.61,US,1627449576
113,yellowknife,62.456,-114.3525,53.29,64,69,5.37,CA,1627449303
114,esperance,-33.8667,121.9,59.83,51,14,16.31,AU,1627449577
115,surt,31.2089,16.5887,77.85,67,0,7.36,LY,1627449578
116,ahuimanu,21.4447,-157.8378,82.11,67,90,13.8,US,1627449578
117,puerto ayora,-0.7393,-90.3518,71.13,85,21,9.62,EC,1627449578
118,luderitz,-26.6481,15.1594,53.78,74,0,10.98,NA,1627449579
119,maceio,-9.6658,-35.7353,71.04,100,20,2.3,BR,1627449579
120,portland,45.5234,-122.6762,76.98,55,20,1.01,US,1627449317
121,yinchuan,38.4681,106.2731,88.7,24,2,3.65,CN,1627449481
122,longyearbyen,78.2186,15.6401,42.64,93,75,8.05,SJ,1627449580
123,nantucket,41.2835,-70.0995,70.97,89,30,13.65,US,1627449580
124,hilo,19.7297,-155.09,74.93,90,90,3.44,US,1627449581
125,ponta do sol,32.6667,-17.1,72.23,79,8,4.61,PT,1627449581
126,saint-philippe,-21.3585,55.7679,67.59,91,90,19.01,RE,1627449582
127,noyabrsk,63.1994,75.4507,50.0,94,86,17.13,RU,1627449582
128,axim,4.8699,-2.2405,75.9,79,100,9.15,GH,1627449582
129,luganville,-15.5333,167.1667,77.88,82,84,13.49,VU,1627449583
130,lebu,-37.6167,-73.65,43.99,81,0,16.42,CL,1627449583
131,mahibadhoo,3.7833,72.9667,81.88,76,100,9.1,MV,1627449583
132,port blair,11.6667,92.75,82.9,82,100,19.44,IN,1627449584
133,lagoa,39.05,-27.9833,69.76,91,76,8.21,PT,1627449584
134,tuatapere,-46.1333,167.6833,51.82,78,72,2.62,NZ,1627449585
135,salisbury,51.0693,-1.7957,61.47,92,75,11.5,GB,1627449585
136,khatanga,71.9667,102.5,88.34,34,23,17.78,RU,1627449586
137,narasannapeta,18.4167,84.05,88.27,60,100,10.71,IN,1627449586
138,roebourne,-20.7833,117.1333,80.6,45,22,9.06,AU,1627449586
139,carnarvon,-24.8667,113.6333,71.67,54,90,11.5,AU,1627449587
140,castro,-24.7911,-50.0119,41.31,94,86,5.44,BR,1627449587
141,kichera,55.9375,110.0997,80.2,39,75,3.06,RU,1627449588
142,pangnirtung,66.1451,-65.7125,49.05,74,100,1.86,CA,1627449588
143,lorengau,-2.0226,147.2712,84.92,71,10,6.08,PG,1627449589
144,camacha,33.0833,-16.3333,68.76,73,75,12.66,PT,1627449589
145,trinidad,-14.8333,-64.9,63.48,28,42,9.4,BO,1627449589
146,provideniya,64.3833,-173.3,50.11,87,90,17.9,RU,1627449590
147,severo-kurilsk,50.6789,156.125,58.64,90,100,6.62,RU,1627449590
148,vanimo,-2.6741,141.3028,82.9,82,28,6.04,PG,1627449590
149,coihaique,-45.5752,-72.0662,31.95,93,0,2.3,CL,1627449591
150,iskateley,67.6803,53.1512,46.45,80,100,11.32,RU,1627449591
151,tommot,58.9564,126.2925,77.22,41,7,5.59,RU,1627449592
152,vuktyl,63.8567,57.3094,43.27,95,100,14.76,RU,1627449592
153,monopoli,40.9559,17.2896,84.72,54,49,4.61,IT,1627449592
154,cabo san lucas,22.8909,-109.9124,85.6,73,6,1.99,MX,1627449593
155,comodoro rivadavia,-45.8667,-67.5,42.66,52,0,8.05,AR,1627449301
156,dikson,73.5069,80.5464,37.31,98,100,14.72,RU,1627449593
157,karratha,-20.7377,116.8463,78.91,48,28,11.79,AU,1627449594
158,upernavik,72.7868,-56.1549,49.05,76,99,5.64,GL,1627449594
159,atuona,-9.8,-139.0333,78.04,69,8,18.03,PF,1627449594
160,ardakan,32.31,54.0175,91.78,11,0,12.93,IR,1627449595
161,mandalgovi,45.7625,106.2708,75.29,39,67,4.85,MN,1627449595
162,coahuayana,18.7333,-103.6833,77.67,93,97,3.29,MX,1627449596
163,pevek,69.7008,170.3133,38.52,86,97,14.36,RU,1627449596
164,vysotskoye,45.025,42.9064,63.77,78,100,2.48,RU,1627449596
165,stornoway,58.2093,-6.3865,61.93,94,90,14.97,GB,1627449597
166,geraldton,-28.7667,114.6,68.13,63,90,9.22,AU,1627449556
167,bredasdorp,-34.5322,20.0403,49.32,81,100,4.61,ZA,1627449597
168,manado,1.487,124.8455,95.77,49,20,6.91,ID,1627449598
169,turukhansk,65.8167,87.9833,54.18,87,100,6.73,RU,1627449598
170,kloulklubed,7.0419,134.2556,84.7,75,91,12.91,PW,1627449598
171,pyaozerskiy,65.8333,31.1667,66.79,53,21,7.96,RU,1627449599
172,leningradskiy,69.3833,178.4167,33.46,99,100,9.93,RU,1627449599
173,bilma,18.6853,12.9164,85.42,49,85,8.3,NE,1627449600
174,baruun-urt,46.6806,113.2792,82.11,34,35,12.48,MN,1627449600
175,oranjemund,-28.55,16.4333,52.11,82,0,5.48,NA,1627449600
176,sinnamary,5.3833,-52.95,77.25,87,14,7.87,GF,1627449601
177,pemangkat,1.1667,108.9667,87.51,66,77,10.98,ID,1627449601
178,kavieng,-2.5744,150.7967,83.93,73,19,6.91,PG,1627449603
179,le moule,16.3332,-61.3473,77.04,78,2,15.48,GP,1627449603
180,saskylakh,71.9167,114.0833,70.18,32,14,19.04,RU,1627449604
181,saldanha,-33.0117,17.9442,55.53,64,100,7.11,ZA,1627449604
182,kalat,29.0225,66.5916,83.7,19,91,6.62,PK,1627449354
183,unai,-16.3575,-46.9061,64.83,44,5,2.57,BR,1627449605
184,okhotsk,59.3833,143.3,62.19,78,48,13.76,RU,1627449605
185,suntar,62.1444,117.6319,86.07,37,4,5.99,RU,1627449606
186,xuchang,34.0167,113.8167,85.08,79,95,19.33,CN,1627449606
187,korla,41.7597,86.1469,97.45,12,7,5.82,CN,1627449606
188,te anau,-45.4167,167.7167,48.58,81,93,3.56,NZ,1627449607
189,xichang,27.8964,102.2634,75.56,75,100,2.37,CN,1627449607
190,san patricio,28.017,-97.5169,84.83,73,13,7.18,US,1627449608
191,thompson,55.7435,-97.8558,62.76,72,75,6.91,CA,1627449608
192,victoria,22.2855,114.1577,93.38,78,100,5.99,HK,1627449561
193,ilulissat,69.2167,-51.1,53.62,66,100,6.91,GL,1627449609
194,kaitangata,-46.2817,169.8464,49.93,70,57,2.44,NZ,1627449609
195,aykhal,66.0,111.5,86.16,30,43,7.0,RU,1627449609
196,porto novo,6.4965,2.6036,76.82,83,100,7.27,BJ,1627449610
197,suleja,9.1758,7.1808,70.79,97,100,2.91,NG,1627449610
198,tynda,55.1667,124.7167,64.0,96,100,1.68,RU,1627449611
199,tiksi,71.6872,128.8694,41.95,78,10,13.58,RU,1627449611
200,fortuna,40.5982,-124.1573,71.47,90,100,3.22,US,1627449611
201,raahe,64.6833,24.4833,70.2,68,71,3.18,FI,1627449612
202,talagang,32.9297,72.4158,93.4,50,62,14.83,PK,1627449612
203,olafsvik,64.8945,-23.7142,51.03,90,98,14.0,IS,1627449612
204,hofn,64.2539,-15.2082,54.34,80,100,5.88,IS,1627449613
205,novo oriente,-5.5344,-40.7742,74.28,50,29,3.29,BR,1627449613
206,labelle,26.7617,-81.4384,80.98,84,84,3.13,US,1627449614
207,vila velha,-20.3297,-40.2925,71.55,83,0,6.91,BR,1627449614
208,fort collins,40.5853,-105.0844,80.92,51,1,1.01,US,1627449363
209,linxia,35.6003,103.2064,76.32,35,26,3.69,CN,1627449615
210,taunggyi,20.7833,97.0333,68.7,86,100,6.4,MM,1627449615
211,sulecin,52.4443,15.1168,70.09,74,98,2.98,PL,1627449615
212,avera,33.194,-82.5271,80.71,81,93,4.45,US,1627449616
213,vigrestad,58.5667,5.7,62.96,90,92,14.45,NO,1627449616
214,klaksvik,62.2266,-6.589,50.92,94,98,2.57,FO,1627449616
215,vaitape,-16.5167,-151.75,77.14,76,70,7.2,PF,1627449617
216,port elizabeth,-33.918,25.5701,55.69,82,0,8.05,ZA,1627449617
217,novyy urengoy,66.0833,76.6333,58.6,59,97,8.48,RU,1627449618
218,rongcheng,30.634,117.8517,86.16,79,99,8.66,CN,1627449618
219,ormara,25.2088,64.6357,82.78,85,99,16.6,PK,1627449618
220,bambous virieux,-20.3428,57.7575,70.05,78,75,18.41,MU,1627449619
221,aguas formosas,-17.0822,-40.9358,63.28,88,2,3.42,BR,1627449619
222,whitehorse,60.7161,-135.0538,59.31,62,75,15.01,CA,1627449620
223,north bend,43.4065,-124.2243,60.24,87,1,10.36,US,1627449620
224,koutiala,12.3917,-5.4642,74.98,89,99,7.18,ML,1627449620
225,alta floresta,-9.8756,-56.0861,69.98,48,2,4.09,BR,1627449621
226,lovozero,68.005,35.0117,56.01,78,70,8.55,RU,1627449621
227,vestmannaeyjar,63.4427,-20.2734,52.5,84,44,3.78,IS,1627449621
228,sao filipe,14.8961,-24.4956,73.69,81,9,8.05,CV,1627449622
229,shimanovsk,52.0,127.7,78.13,74,76,7.63,RU,1627449622
230,katangli,51.7102,143.2326,73.62,77,99,5.93,RU,1627449623
231,shwebo,22.5667,95.7,75.65,93,100,8.75,MM,1627449623
232,yulara,-25.2406,130.9889,76.84,29,40,5.75,AU,1627449624
233,port macquarie,-31.4333,152.9167,80.56,44,4,10.83,AU,1627449624
234,mercedes,-34.6515,-59.4307,43.86,65,60,13.78,AR,1627449624
235,ratnagiri,16.9833,73.3,81.86,80,67,17.74,IN,1627449625
236,danshui,22.7984,114.4672,93.07,53,95,4.0,CN,1627449625
237,sao domingos,-13.3983,-46.3183,65.39,45,5,3.27,BR,1627449625
238,shasta lake,40.6804,-122.3708,74.75,66,85,4.92,US,1627449626
239,steamboat springs,40.485,-106.8317,78.39,42,1,3.44,US,1627449626
240,qaqortoq,60.7167,-46.0333,43.3,80,100,1.21,GL,1627449627
241,novo aripuana,-5.1206,-60.3797,73.04,59,3,1.81,BR,1627449627
242,concordia,-31.393,-58.0209,39.78,74,32,3.0,AR,1627449628
243,changde,29.0464,111.6783,91.11,59,2,11.3,CN,1627449628
244,ambilobe,-13.2,49.05,72.18,63,1,3.15,MG,1627449628
245,ostrovnoy,68.0531,39.5131,46.22,96,100,5.93,RU,1627449629
246,manicore,-5.8092,-61.3003,73.35,94,0,0.0,BR,1627449629
247,san vicente,-26.6167,-54.1333,32.43,70,0,2.3,AR,1627449630
248,juneau,58.3019,-134.4197,58.84,91,90,5.75,US,1627449630
249,salalah,17.0151,54.0924,78.89,94,90,8.05,OM,1627449630
250,brandon,27.9378,-82.2859,84.85,93,1,0.0,US,1627449631
251,isangel,-19.55,169.2667,72.86,61,2,14.63,VU,1627449631
252,skaudvile,55.4167,22.6167,65.91,88,38,5.23,LT,1627449632
253,rupert,42.6191,-113.6772,78.24,56,90,18.41,US,1627449454
254,tungor,53.3808,142.9564,73.13,84,100,1.79,RU,1627449632
255,wasilla,61.5814,-149.4394,62.53,73,90,4.61,US,1627449633
256,champerico,14.3,-91.9167,82.04,78,26,1.95,GT,1627449633
257,mirnyy,62.5353,113.9611,86.22,33,5,8.05,RU,1627449633
258,knysna,-34.0363,23.0471,52.18,86,100,6.44,ZA,1627449634
259,ust-nera,64.5667,143.2,52.32,73,99,10.16,RU,1627449634
260,belle glade,26.6845,-80.6676,78.82,81,21,3.96,US,1627449526
261,yumen,40.2833,97.2,89.58,12,0,8.79,CN,1627449635
262,noumea,-22.2763,166.4572,75.99,98,9,14.5,NC,1627449635
263,bagdarin,54.4333,113.6,67.71,75,91,5.48,RU,1627449635
264,jiwani,25.05,61.7417,83.34,83,99,7.45,PK,1627449636
265,vardo,70.3705,31.1107,48.4,84,90,13.76,NO,1627449636
266,lavrentiya,65.5833,-171.0,43.97,99,100,10.38,RU,1627449637
267,jacareacanga,-6.2222,-57.7528,74.48,50,20,0.74,BR,1627449637
268,altus,34.6381,-99.334,83.71,69,1,5.75,US,1627449637
269,alta gracia,-31.6529,-64.4283,42.89,38,83,5.1,AR,1627449638
270,huanren,41.2647,125.3667,94.78,42,98,3.94,CN,1627449638
271,innisfail,-17.5333,146.0333,75.36,61,49,6.71,AU,1627449639
272,afua,-0.1567,-50.3867,74.52,94,20,4.61,BR,1627449639
273,chlorakas,34.8042,32.4083,92.43,35,0,12.66,CY,1627449639
274,sorland,67.667,12.6934,57.27,88,9,11.03,NO,1627449640
275,natchez,31.5604,-91.4032,78.24,91,40,0.0,US,1627449640
276,uglovskoye,51.3557,80.1942,70.68,34,11,9.35,RU,1627449641
277,mahanje,-9.9333,35.3333,54.59,63,5,2.28,TZ,1627449641
278,safaga,26.7292,33.9365,89.6,38,93,14.7,EG,1627449642
279,krasnoselkup,65.7,82.4667,55.81,63,97,3.29,RU,1627449642
280,barcelos,41.5388,-8.6151,61.84,90,0,4.76,PT,1627449642
281,guamuchil,25.4667,-108.1,87.75,87,43,4.63,MX,1627449643
282,hailar,49.2,119.7,77.56,49,47,11.41,CN,1627449643
283,moose factory,51.2585,-80.6094,57.18,67,1,6.91,CA,1627449644
284,giyani,-23.3025,30.7187,51.87,59,0,2.44,ZA,1627449555
285,broken hill,-31.95,141.4333,62.51,33,0,25.32,AU,1627449644
286,yerbogachen,61.2767,108.0108,88.02,30,2,10.96,RU,1627449645
287,malkara,40.89,26.9011,74.8,50,0,6.8,TR,1627449645
288,neiafu,-18.65,-173.9833,70.48,94,90,2.3,TO,1627449645
289,saint-pierre,-21.3393,55.4781,67.68,89,90,23.02,RE,1627449646
290,bambanglipuro,-7.95,110.2833,82.11,65,56,14.41,ID,1627449646
291,fiche,9.8,38.7333,52.83,87,100,1.7,ET,1627449647
292,brae,60.3964,-1.353,55.31,94,74,7.56,GB,1627449647
293,cabra,37.4725,-4.4421,72.9,57,0,2.57,ES,1627449647
294,dickinson,29.4608,-95.0513,81.19,79,40,4.61,US,1627449648
295,tuban,-6.8976,112.0649,87.69,51,11,4.52,ID,1627449648
296,dzhebariki-khaya,62.2167,135.8,72.01,37,35,12.95,RU,1627449648
297,mareeba,-17.0,145.4333,79.48,64,0,6.33,AU,1627449649
298,sitangkai,4.6628,119.3928,84.63,78,72,19.1,PH,1627449649
299,fare,-16.7,-151.0167,78.82,70,37,8.66,PF,1627449650
300,batagay-alyta,67.8006,130.4114,56.93,42,19,14.54,RU,1627449650
301,morant bay,17.8815,-76.4093,82.02,83,100,4.5,JM,1627449651
302,rundu,-17.9333,19.7667,43.09,58,2,6.06,NA,1627449651
303,venado,22.9333,-101.0833,65.95,71,50,8.39,MX,1627449651
304,paratinga,-12.6906,-43.1842,69.33,43,4,3.62,BR,1627449652
305,cuamba,-14.8031,36.5372,56.86,86,42,3.36,MZ,1627449652
306,staryy nadym,65.6118,72.6842,58.24,72,90,7.05,RU,1627449653
307,inongo,-1.95,18.2667,64.44,52,21,4.36,CD,1627449653
308,pingliang,35.5392,106.6861,77.07,43,96,1.54,CN,1627449653
309,watertown,42.3709,-71.1828,68.29,94,90,1.99,US,1627449447
310,port moresby,-9.4431,147.1797,81.82,78,75,11.5,PG,1627449654
311,viedma,-40.8135,-62.9967,43.92,70,86,15.05,AR,1627449654
312,san antonio,29.4241,-98.4936,83.08,73,1,6.91,US,1627449488
313,touros,-5.1989,-35.4608,74.3,90,12,10.87,BR,1627449655
314,bubaque,11.2833,-15.8333,79.83,81,100,8.97,GW,1627449656
315,kutum,14.2,24.6667,68.68,87,100,15.57,SD,1627449656
316,sitka,57.0531,-135.33,60.69,77,75,0.0,US,1627449431
317,eureka,40.8021,-124.1637,69.67,93,100,1.01,US,1627449590
318,ayagoz,47.9714,80.4392,71.47,28,0,13.11,KZ,1627449657
319,leh,34.1667,77.5833,68.88,41,99,0.65,IN,1627449657
320,baykit,61.67,96.37,71.67,69,100,7.61,RU,1627449658
321,san cristobal,7.7669,-72.225,64.74,94,59,1.3,VE,1627449658
322,cabedelo,-6.9811,-34.8339,74.07,85,11,10.4,BR,1627449658
323,rehoboth,-23.3167,17.0833,47.12,38,0,6.73,NA,1627449659
324,haines junction,60.7522,-137.5108,55.35,67,48,6.91,CA,1627449659
325,palembang,-2.9167,104.7458,86.09,66,40,12.66,ID,1627449660
326,sudbury,46.49,-80.99,63.46,90,59,5.3,CA,1627449480
327,quang ngai,15.1167,108.8,99.23,39,92,8.95,VN,1627449661
328,koshurnikovo,54.1667,93.3,55.63,97,100,6.8,RU,1627449661
329,gimli,50.6336,-96.9907,75.22,73,18,8.05,CA,1627449661
330,barreirinhas,-2.7469,-42.8264,75.24,91,24,4.43,BR,1627449618
331,coxim,-18.5067,-54.76,60.17,76,17,4.76,BR,1627449662
332,san agustin,20.5333,-103.4667,69.51,70,40,0.0,MX,1627449662
333,gua musang,4.8823,101.9644,93.88,43,67,2.59,MY,1627449663
334,shiraz,29.6036,52.5388,90.84,15,0,6.91,IR,1627449663
335,baherden,38.4362,57.4316,95.27,14,0,7.07,TM,1627449664
336,talnakh,69.4865,88.3972,57.67,89,97,7.29,RU,1627449664
337,piacabucu,-10.4056,-36.4344,72.86,86,18,3.87,BR,1627449664
338,kungurtug,50.5994,97.5228,70.52,63,58,1.34,RU,1627449665
339,airai,-8.9266,125.4092,76.73,39,64,4.79,TL,1627449665
340,walvis bay,-22.9575,14.5053,55.09,93,0,3.44,NA,1627449666
341,wukari,7.85,9.7833,70.47,82,100,4.05,NG,1627449666
342,paamiut,61.994,-49.6678,44.2,83,81,9.57,GL,1627449666
343,constitucion,-35.3333,-72.4167,43.68,80,0,6.71,CL,1627449650
344,chateauroux,46.8167,1.7,59.0,100,40,6.91,FR,1627449667
345,folldal,62.1325,9.9968,58.26,93,100,3.53,NO,1627449667
346,los llanos de aridane,28.6585,-17.9182,69.55,85,90,12.66,ES,1627449668
347,christchurch,-43.5333,172.6333,52.92,69,75,4.0,NZ,1627449668
348,pahrump,36.2083,-115.9839,91.06,34,32,1.01,US,1627449376
349,humaita,-7.5061,-63.0208,74.82,54,17,1.03,BR,1627449669
350,sterling,39.0062,-77.4286,76.69,79,1,3.0,US,1627449561
351,esna,25.2934,32.554,87.64,21,80,15.9,EG,1627449669
352,vanavara,60.34,102.2797,90.79,28,0,1.01,RU,1627449670
353,poum,-20.2333,164.0167,72.36,61,3,14.52,NC,1627449670
354,ancud,-41.8697,-73.8203,40.53,89,66,4.5,CL,1627449670
355,den helder,52.9599,4.7593,62.98,94,75,10.36,NL,1627449513
356,aklavik,68.2191,-135.0107,59.72,84,99,9.48,CA,1627449671
357,port hedland,-20.3167,118.5667,82.45,51,29,13.8,AU,1627449671
358,iqaluit,63.7506,-68.5145,44.33,81,75,5.99,CA,1627449672
359,aginskoye,51.1,114.53,74.21,55,33,4.59,RU,1627449672
360,nizwa,22.9333,57.5333,94.08,38,93,8.66,OM,1627449673
361,padang,-0.9492,100.3543,83.93,74,67,5.53,ID,1627449673
362,puerto colombia,10.9878,-74.9547,77.09,83,99,6.08,CO,1627449674
363,hambantota,6.1241,81.1185,86.74,65,100,20.02,LK,1627449674
364,baturaja,-4.1333,104.1667,88.02,42,66,6.06,ID,1627449674
365,srednekolymsk,67.45,153.6833,38.89,96,100,9.28,RU,1627449675
366,diego de almagro,-26.3667,-70.05,48.07,40,0,1.23,CL,1627449675
367,torbay,47.6666,-52.7314,65.75,98,90,12.66,CA,1627449675
368,dourbali,11.8091,15.8632,72.54,94,100,6.6,TD,1627449676
369,praia,14.9215,-23.5087,75.74,73,75,9.22,CV,1627449676
370,saint-augustin,51.226,-58.6502,59.99,97,99,5.99,CA,1627449677
371,ettlingen,48.9409,8.4076,65.26,93,87,4.54,DE,1627449677
372,tokonou,9.65,-9.7833,67.71,97,100,6.42,GN,1627449677
373,teya,60.3778,92.6267,62.2,59,100,6.02,RU,1627449678
374,vila do maio,15.1333,-23.2167,75.99,82,99,10.18,CV,1627449678
375,tumaco,1.7986,-78.8156,75.7,90,51,4.59,CO,1627449679
376,igrim,63.1906,64.4162,48.61,72,82,7.87,RU,1627449679
377,gamba,-2.65,10.0,72.45,85,99,1.28,GA,1627449680
378,blagodatnoye,45.3997,42.5867,65.32,61,100,2.08,RU,1627449680
379,pringsewu,-5.3582,104.9744,89.96,42,40,3.31,ID,1627449680
380,consett,54.854,-1.8316,57.36,93,96,5.1,GB,1627449681
381,hattiesburg,31.3271,-89.2903,80.53,85,90,4.61,US,1627449477
382,nador,35.174,-2.9287,73.65,88,75,1.14,MA,1627449681
383,erenhot,43.6475,111.9767,80.24,38,100,10.27,CN,1627449682
384,xuddur,4.1213,43.8894,72.12,69,100,18.72,SO,1627449682
385,soddy-daisy,35.2359,-85.1908,77.49,90,64,2.59,US,1627449683
386,tiznit,29.5833,-9.5,68.38,67,1,1.3,MA,1627449683
387,napasar,27.9667,73.55,85.68,66,100,15.08,IN,1627449683
388,saint george,37.1041,-113.5841,86.63,39,1,8.99,US,1627449424
389,aswan,24.0934,32.907,88.68,22,94,13.94,EG,1627449684
390,misratah,32.3754,15.0925,78.55,65,0,7.05,LY,1627449684
391,borovoy,55.4333,86.0833,67.28,52,40,2.24,RU,1627449685
392,sonkovo,57.7782,37.1571,68.23,60,40,8.77,RU,1627449685
393,pangkalanbuun,-2.6833,111.6167,84.72,68,92,4.5,ID,1627449531
394,koumac,-20.5667,164.2833,72.7,58,0,5.95,NC,1627449686
395,bembereke,10.2283,2.6634,69.01,97,100,5.5,BJ,1627449686
396,pochutla,15.7432,-96.4661,77.83,91,97,3.4,MX,1627449687
397,beyneu,45.3167,55.2,81.3,20,100,16.8,KZ,1627449687
398,lamu,-2.2717,40.902,77.45,76,63,17.67,KE,1627449687
399,saint anthony,45.0205,-93.218,82.29,79,1,1.99,US,1627449688
400,luang prabang,19.8856,102.1347,89.56,58,40,4.61,LA,1627449688
401,athmallik,20.7219,84.5348,77.41,91,100,8.46,IN,1627449689
402,vila franca do campo,37.7167,-25.4333,68.41,90,14,7.78,PT,1627449689
403,mananjary,-21.2167,48.3333,64.2,84,81,6.44,MG,1627449689
404,mamburao,13.25,120.6667,80.42,88,100,12.62,PH,1627449690
405,tamandare,-8.7597,-35.1047,73.17,89,2,6.87,BR,1627449690
406,koani,-6.1333,39.2833,72.14,82,18,8.81,TZ,1627449690
407,baniyas,35.1819,35.9487,84.49,53,0,3.74,SY,1627449691
408,rudsar,37.1376,50.288,80.58,75,73,10.51,IR,1627449691
409,khani,41.9563,42.9566,65.77,81,87,2.04,GE,1627449692
410,tranas,58.0372,14.9782,61.83,93,31,3.24,SE,1627449692
411,tansen,27.8673,83.5467,76.08,76,82,4.7,NP,1627449693
412,ventspils,57.3894,21.5606,71.53,94,0,8.05,LV,1627449693
413,dicabisagan,17.0818,122.4157,91.38,61,97,6.06,PH,1627449693
414,ashland,40.8167,-82.2665,70.09,90,1,4.41,US,1627449694
415,fukue,32.6881,128.8419,86.36,74,20,10.36,JP,1627449694
416,coronado,32.6859,-117.1831,76.01,87,40,12.66,US,1627449694
417,mapiripan,2.8892,-72.1256,72.79,96,100,1.12,CO,1627449695
418,davenport,41.5236,-90.5776,78.67,83,1,1.01,US,1627449695
419,nishihara,26.1842,127.7558,92.86,77,75,21.85,JP,1627449696
420,kamaishi,39.2667,141.8833,76.15,94,100,7.25,JP,1627449696
421,kontagora,10.3999,5.4695,70.03,97,100,3.76,NG,1627449697
422,juruti,-2.1522,-56.0922,75.87,61,12,1.9,BR,1627449697
423,pizarro,4.9533,-77.366,76.59,87,100,2.44,CO,1627449698
424,yerraguntla,14.6372,78.5395,89.22,50,71,23.4,IN,1627449698
425,khasan,42.4308,130.6434,83.28,67,28,8.1,RU,1627449698
426,waipawa,-41.4122,175.5153,52.03,79,0,3.6,NZ,1627449699
427,lanzhou,36.0564,103.7922,83.48,28,8,5.79,CN,1627449699
428,gambiran,-6.7988,111.4951,89.65,40,7,6.89,ID,1627449700
429,tomigusuku,26.185,127.675,93.33,74,75,11.5,JP,1627449700
430,la libertad,-2.2333,-80.9,70.45,86,97,8.7,EC,1627449701
431,jiangkou,25.4872,119.1986,93.09,69,98,12.01,CN,1627449701
432,natal,-5.795,-35.2094,75.42,94,40,3.44,BR,1627449701
433,akkermanovka,51.2467,58.2391,74.98,40,8,9.37,RU,1627449702
434,batagay,67.6333,134.6333,63.68,35,5,10.36,RU,1627449702
435,gaoua,10.2992,-3.2508,71.1,94,100,6.6,BF,1627449703
436,smiltene,57.4244,25.9016,66.79,96,100,5.26,LV,1627449703
437,bonavista,48.6499,-53.1147,64.4,97,100,13.76,CA,1627449703
438,sakakah,29.9697,40.2064,83.77,20,0,5.12,SA,1627449704
439,shirochanka,46.6497,38.3978,73.8,51,7,4.47,RU,1627449704
440,kawalu,-7.3817,108.2082,79.59,68,70,5.35,ID,1627449705
441,takoradi,4.8845,-1.7554,74.88,84,99,8.16,GH,1627449705
442,kapustin yar,48.5831,45.7372,81.32,30,30,6.2,RU,1627449705
443,miles city,46.4083,-105.8406,91.51,19,1,13.8,US,1627449706
444,odweyne,9.4092,45.064,69.75,69,100,25.12,SO,1627449706
445,shache,38.4167,77.2406,97.16,14,66,9.64,CN,1627449707
446,nouadhibou,20.931,-17.0347,67.98,94,75,19.57,MR,1627449707
447,firavitoba,5.6689,-72.9929,49.91,91,45,1.14,CO,1627449707
448,usinsk,65.9939,57.5281,46.2,87,100,14.9,RU,1627449708
449,jaguaruna,-28.615,-49.0256,45.34,63,4,12.53,BR,1627449708
450,sarangani,5.4033,125.4636,84.67,70,75,8.66,PH,1627449709
451,whyalla,-33.0333,137.5833,62.49,48,40,17.27,AU,1627449709
452,springbok,-29.6643,17.8865,39.76,80,6,2.75,ZA,1627449709
453,vostok,46.4856,135.8833,87.26,54,73,2.44,RU,1627449710
454,cap malheureux,-19.9842,57.6142,70.29,84,92,8.99,MU,1627449710
455,dzerzhinskoye,56.8344,95.2283,69.49,49,96,8.16,RU,1627449711
456,dabola,10.75,-11.1167,71.69,96,100,3.2,GN,1627449711
457,finschhafen,-6.6024,147.8681,83.19,74,79,12.75,PG,1627449711
458,sirari,-1.2333,34.4333,64.63,64,85,4.81,TZ,1627449712
459,okhansk,57.7186,55.3877,53.67,66,99,9.44,RU,1627449712
460,pergamino,-33.89,-60.5736,37.51,61,9,13.62,AR,1627449712
461,burnie,-41.0667,145.9167,49.71,82,98,20.27,AU,1627449713
462,makakilo city,21.3469,-158.0858,80.92,62,1,6.91,US,1627449713
463,pombas,17.1503,-25.0201,74.98,79,91,9.33,CV,1627449714
464,dire,12.2833,-10.9667,73.69,97,99,5.82,ML,1627449669
465,floirac,44.8324,-0.5141,62.15,95,90,3.44,FR,1627449714
466,point pleasant,40.0832,-74.0682,76.98,68,1,0.0,US,1627449715
467,trabzon,40.9167,39.8333,69.89,69,75,10.36,TR,1627449715
468,doka,13.5167,35.7667,71.4,88,99,12.57,SD,1627449715
469,zhuzhou,27.8333,113.15,95.13,45,36,10.07,CN,1627449716
470,san pedro,14.35,121.0167,83.16,93,100,21.25,PH,1627449716
471,whitianga,-36.8333,175.7,58.01,76,33,9.89,NZ,1627449717
472,port-cartier,50.0334,-66.8654,57.74,71,100,12.41,CA,1627449717
473,ouadda,8.0777,22.4007,66.72,99,99,2.77,CF,1627449717
474,kumluca,36.3703,30.2869,88.14,41,0,6.96,TR,1627449718
475,krasnoye,49.9145,24.6134,70.95,81,27,3.11,UA,1627449718
476,kayerkan,69.3497,87.7602,54.73,86,100,10.49,RU,1627449718
477,xam nua,20.4197,104.0439,84.42,55,100,4.27,LA,1627449719
478,catuday,16.2923,119.8062,82.42,82,100,20.31,PH,1627449719
479,aksha,50.2814,113.2867,73.26,61,14,4.72,RU,1627449720
480,little current,45.9793,-81.9248,64.45,79,94,8.05,CA,1627449720
481,hami,42.8,93.45,99.66,11,9,7.34,CN,1627449720
482,the valley,18.217,-63.0578,81.82,76,2,19.86,AI,1627449721
483,bengbu,32.9408,117.3608,76.62,98,100,12.64,CN,1627449572
484,kiama,-34.6833,150.8667,70.38,42,78,15.01,AU,1627449430
485,kralendijk,12.15,-68.2667,80.58,83,40,8.05,BQ,1627449434
486,bemidji,47.4736,-94.8803,73.69,89,1,8.05,US,1627449499
487,peniche,39.3558,-9.3811,66.72,89,2,20.2,PT,1627449722
488,port augusta,-32.5,137.7667,62.74,35,22,20.11,AU,1627449722
489,saint andrews,34.0454,-81.1293,77.76,78,75,0.0,US,1627449723
490,waterloo,43.4668,-80.5164,67.28,99,75,3.44,CA,1627449634
491,maniitsoq,65.4167,-52.9,48.45,76,45,12.44,GL,1627449723
492,codrington,-38.2667,141.9667,49.55,76,96,24.34,AU,1627449633
493,lazaro cardenas,17.9583,-102.2,79.72,86,96,3.27,MX,1627449724
494,aubenas,44.6201,4.3899,64.47,93,95,2.86,FR,1627449724
495,traverse city,44.7631,-85.6206,65.48,88,1,3.44,US,1627449606
496,belluno,46.145,12.2214,66.56,96,6,1.01,IT,1627449725
497,faya,18.3851,42.4509,66.31,75,65,5.68,SA,1627449725
498,sisophon,13.5859,102.9737,91.18,57,100,15.7,KH,1627449726
499,ondangwa,-17.9167,15.95,44.6,61,0,4.61,NA,1627449726
500,contamana,-7.3333,-75.0167,75.65,78,57,1.39,PE,1627449727
501,ihosy,-22.4,46.1167,55.65,89,81,8.9,MG,1627449727
502,zapadnaya dvina,56.259,32.0745,62.29,96,99,4.07,RU,1627449728
503,lamesa,32.7376,-101.951,83.08,54,43,11.41,US,1627449539
504,ishigaki,24.3448,124.1572,87.93,79,75,12.66,JP,1627449728
505,huarmey,-10.0681,-78.1522,64.89,87,36,8.79,PE,1627449729
506,sao marcos,-28.9711,-51.0681,35.56,77,2,4.83,BR,1627449729
507,bengkulu,-3.8004,102.2655,85.03,61,57,8.7,ID,1627449729
508,acapulco,16.8634,-99.8901,79.99,82,67,2.33,MX,1627449730
509,gainesville,29.6516,-82.3248,77.76,92,1,0.0,US,1627449730
510,eckernforde,54.4667,9.8333,63.57,90,100,10.33,DE,1627449731
511,ulladulla,-35.35,150.4667,67.87,49,81,15.95,AU,1627449731
512,kasongo-lunda,-6.4667,16.8167,59.68,31,6,2.26,CD,1627449731
513,rio grande,-32.035,-52.0986,39.94,66,4,18.92,BR,1627449732
514,port perry,44.1068,-78.9444,67.71,90,6,4.79,CA,1627449612
515,balikpapan,-1.2675,116.8289,85.19,74,40,5.75,ID,1627449732
516,bilibino,68.0546,166.4372,43.68,77,100,3.67,RU,1627449733
517,madison,34.7334,-86.5667,76.86,96,1,1.01,US,1627449733
518,batemans bay,-35.7167,150.1833,65.91,51,89,15.17,AU,1627449733
519,salinopolis,-0.6136,-47.3561,78.24,85,91,8.48,BR,1627449734
520,svetlaya,46.5389,138.3297,76.6,71,48,5.79,RU,1627449734
521,broome,42.2506,-75.833,65.89,96,90,3.44,US,1627449735
522,mount isa,-20.7333,139.5,89.37,18,7,11.5,AU,1627449735
523,cotonou,6.3654,2.4183,76.98,88,40,16.11,BJ,1627449495
524,tonota,-21.4833,27.4833,44.37,82,0,4.59,BW,1627449736
525,zabid,14.1951,43.3152,86.65,68,76,5.73,YE,1627449736
526,linguere,15.3953,-15.1193,77.09,76,88,10.31,SN,1627449736
527,porbandar,21.6422,69.6093,82.92,82,100,25.77,IN,1627449737
528,barkly west,-28.5354,24.5215,42.08,53,2,11.74,ZA,1627449737
529,puerto escondido,15.85,-97.0667,79.48,86,46,5.46,MX,1627449737
530,arroyo,41.6096,-4.7969,60.22,78,0,13.8,ES,1627449738
531,inhambane,-23.865,35.3833,57.18,94,20,0.0,MZ,1627449738
532,ovre ardal,61.3167,7.8,59.88,91,100,3.33,NO,1627449739
533,vidim,56.4088,103.1106,89.65,25,0,1.92,RU,1627449739
534,dutse,11.7594,9.3392,71.13,86,100,6.46,NG,1627449739
535,ust-maya,60.4167,134.5333,76.39,38,27,8.14,RU,1627449740
536,havre-saint-pierre,50.2334,-63.5986,55.76,94,75,3.44,CA,1627449740
537,abu kamal,34.4506,40.9171,89.8,27,0,21.72,SY,1627449741
538,narsaq,60.9167,-46.05,43.02,71,99,3.6,GL,1627449741
539,capao da canoa,-29.7456,-50.0097,46.54,55,0,15.97,BR,1627449742
540,katsuura,35.1333,140.3,87.91,75,96,18.37,JP,1627449742
541,gizo,-8.103,156.8419,82.89,73,90,7.02,SB,1627449743
542,nome,64.5011,-165.4064,51.87,87,90,24.16,US,1627449743
543,changqing,36.5575,116.7272,80.33,72,100,8.99,CN,1627449743
544,yarkovo,57.4028,67.0786,55.87,81,99,5.55,RU,1627449744
545,nicolas bravo,18.45,-88.9167,72.95,98,11,2.39,MX,1627449744
546,zhanakorgan,43.9098,67.2495,88.23,14,0,19.04,KZ,1627449745
547,antofagasta,-23.65,-70.4,54.68,73,24,6.35,CL,1627449741
548,corner brook,48.9667,-57.9484,66.33,98,100,3.76,CA,1627449609
549,wynyard,-41.0,145.7167,49.32,81,100,17.43,AU,1627449745
550,westport,41.1415,-73.3579,76.78,89,90,3.0,US,1627449746
551,hanstholm,57.1167,8.6167,61.63,91,82,10.89,DK,1627449746
